[
  {"id": "deas", "name": "Deas", "lat": 49.1429, "lon": -123.0196, "city": "Delta", "hours": "Random Operational Hrs.", "highway": "Highway 99"},
  {"id": "duncan-north", "name": "Duncan North", "lat": 48.7752, "lon": -123.6988, "city": "Duncan", "hours": "Random Operational Hrs.", "highway": "Trans-Canada Hwy"},
  {"id": "fort-nelson", "name": "Fort Nelson", "lat": 58.7495, "lon": -122.6783, "city": "Fort Nelson", "hours": "Random Operational Hrs.", "highway": "Highway 97"},
  {"id": "fort-st-john-charlie-lake", "name": "Fort St. John at Charlie Lake", "lat": 56.2366, "lon": -120.8874, "city": "Fort St. John", "hours": "Random Operational Hrs.", "highway": "Highway 97"},
  {"id": "golden", "name": "Golden", "lat": 51.3014, "lon": -116.984, "city": "Golden", "hours": "Random (Weigh-In-Motion bypass)", "highway": "Trans-Canada Hwy"},
  {"id": "haig", "name": "Haig", "lat": 49.3836, "lon": -121.4422, "city": "Hope", "hours": "Random Operational Hrs.", "highway": "Highway 1"},
  {"id": "hunter-creek", "name": "Hunter Creek", "lat": 49.3567, "lon": -121.435, "city": "Hope", "hours": "Random Operational Hrs. (AVI bypass)", "highway": "Highway 1"},
  {"id": "kaleden", "name": "Kaleden", "lat": 49.5073, "lon": -119.5987, "city": "Penticton", "hours": "Random Operational Hrs.", "highway": "Highway 97"},
  {"id": "kamloops-eastbound", "name": "Kamloops Eastbound", "lat": 50.7061, "lon": -120.3747, "city": "Kamloops", "hours": "Random (AVI bypass)", "highway": "Trans-Canada Hwy"},
  {"id": "kamloops-westbound", "name": "Kamloops Westbound", "lat": 50.7053, "lon": -120.3782, "city": "Kamloops", "hours": "Random (AVI bypass)", "highway": "Trans-Canada Hwy"},
  {"id": "laidlaw", "name": "Laidlaw", "lat": 49.2903, "lon": -121.5511, "city": "Hope", "hours": "Random (Weigh-in-motion bypass)", "highway": "Highway 1"},
  {"id": "nordel", "name": "Nordel", "lat": 49.1428, "lon": -122.9997, "city": "Delta", "hours": "Random (WIM and AVI bypass)", "highway": "Highway 91"},
  {"id": "pacific", "name": "Pacific", "lat": 49.0251, "lon": -122.73, "city": "Surrey", "hours": "Random (AVI bypass)", "highway": "Highway 15"},
  {"id": "parksville", "name": "Parksville", "lat": 49.254, "lon": -124.193, "city": "Nanoose Bay", "hours": "Random (AVI bypass)", "highway": "Island Hwy"},
  {"id": "prince-george-north", "name": "Prince George North", "lat": 53.917, "lon": -122.749, "city": "Prince George", "hours": "Random Operational Hrs.", "highway": "Highway 97"},
  {"id": "quesnel", "name": "Quesnel", "lat": 52.9784, "lon": -122.4925, "city": "Quesnel", "hours": "Random (AVI bypass)", "highway": "Highway 97"},
  {"id": "red-rock", "name": "Red Rock", "lat": 53.85, "lon": -122.7, "city": "Prince George", "hours": "Random (Weigh-in-motion bypass)", "highway": "Highway 16"},
  {"id": "sparwood", "name": "Sparwood", "lat": 49.7319, "lon": -114.8847, "city": "Sparwood", "hours": "Random Operational Hrs.", "highway": "Highway 3"},
  {"id": "tete-jaune-cache", "name": "Tete Jaune Cache", "lat": 52.9167, "lon": -119.9333, "city": "Valemount", "hours": "Random Operational Hrs.", "highway": "Highway 16"},
  {"id": "vanderhoof", "name": "Vanderhoof", "lat": 54.0142, "lon": -124.0089, "city": "Vanderhoof", "hours": "Random (AVI bypass)", "highway": "Highway 16"},
  {"id": "vernon", "name": "Vernon", "lat": 50.3122, "lon": -119.1958, "city": "Vernon", "hours": "Random Operational Hrs.", "highway": "Highway 97"},
  {"id": "yahk", "name": "Yahk", "lat": 49.1064, "lon": -116.0931, "city": "Yahk", "hours": "Random Operational Hrs.", "highway": "Highway 3"},
  {"id": "castlegar", "name": "Castlegar", "lat": 49.315, "lon": -117.665, "city": "Castlegar", "hours": "Random Operational Hrs.", "highway": "Highway 3"},
  {"id": "pouce-coupe", "name": "Pouce Coupe", "lat": 55.733, "lon": -120.129, "city": "Dawson Creek", "hours": "Random Operational Hrs.", "highway": "Highway 97"},
  {"id": "dawson-creek", "name": "Dawson Creek", "lat": 55.759, "lon": -120.235, "city": "Dawson Creek", "hours": "Self weigh", "highway": "Alaska Hwy"},
  {"id": "duncan-south", "name": "Duncan South", "lat": 48.749, "lon": -123.708, "city": "Duncan", "hours": "Self weigh", "highway": "Trans-Canada Hwy"},
  {"id": "midway", "name": "Midway", "lat": 49.016, "lon": -118.776, "city": "Midway", "hours": "Self weigh", "highway": "Highway 3"},
  {"id": "rossland", "name": "Rossland", "lat": 49.078, "lon": -117.799, "city": "Rossland", "hours": "Self weigh", "highway": "Highway 3B"},
  {"id": "saanich", "name": "Saanich", "lat": 48.52, "lon": -123.38, "city": "Saanich", "hours": "Self weigh", "highway": "Pat Bay Hwy"},
  {"id": "south-surrey", "name": "South Surrey", "lat": 49.0, "lon": -122.82, "city": "Surrey", "hours": "Self weigh", "highway": "Highway 99"}
]
